{
"type": "FeatureCollection",
"crs": { "type": "name", "properties": { "name": "urn:ogc:def:crs:OGC:1.3:CRS84" } },
"features": [
{ "type": "Feature", "properties": { "gml_id": "Prefecturesetsousprefecturespo.248", "gid": 248, "insee_commune": "69264", "nom_commune": "Villefranche-sur-saône", "type": "Sous-préfecture" }, "geometry": { "type": "Point", "coordinates": [ 4.718923379267283, 45.986469835863595 ] } },
{ "type": "Feature", "properties": { "gml_id": "Prefecturesetsousprefecturespo.251", "gid": 251, "insee_commune": "71014", "nom_commune": "Autun", "type": "Sous-préfecture" }, "geometry": { "type": "Point", "coordinates": [ 4.298058262422454, 46.958544668733708 ] } },
{ "type": "Feature", "properties": { "gml_id": "Prefecturesetsousprefecturespo.253", "gid": 253, "insee_commune": "71106", "nom_commune": "Charolles", "type": "Sous-préfecture" }, "geometry": { "type": "Point", "coordinates": [ 4.276144281526559, 46.434521043881176 ] } },
{ "type": "Feature", "properties": { "gml_id": "Prefecturesetsousprefecturespo.279", "gid": 279, "insee_commune": "79049", "nom_commune": "Bressuire", "type": "Sous-préfecture" }, "geometry": { "type": "Point", "coordinates": [ -0.49188551844944, 46.840503992579897 ] } },
{ "type": "Feature", "properties": { "gml_id": "Prefecturesetsousprefecturespo.280", "gid": 280, "insee_commune": "79191", "nom_commune": "Niort", "type": "Préfecture" }, "geometry": { "type": "Point", "coordinates": [ -0.460212370833494, 46.323981265142891 ] } },
{ "type": "Feature", "properties": { "gml_id": "Prefecturesetsousprefecturespo.281", "gid": 281, "insee_commune": "79202", "nom_commune": "Parthenay", "type": "Sous-préfecture" }, "geometry": { "type": "Point", "coordinates": [ -0.244395210131937, 46.646323665782965 ] } },
{ "type": "Feature", "properties": { "gml_id": "Prefecturesetsousprefecturespo.286", "gid": 286, "insee_commune": "81004", "nom_commune": "Albi", "type": "Préfecture" }, "geometry": { "type": "Point", "coordinates": [ 2.147476232260778, 43.926715566915064 ] } },
{ "type": "Feature", "properties": { "gml_id": "Prefecturesetsousprefecturespo.287", "gid": 287, "insee_commune": "81065", "nom_commune": "Castres", "type": "Sous-préfecture" }, "geometry": { "type": "Point", "coordinates": [ 2.240865097966905, 43.605313377159774 ] } },
{ "type": "Feature", "properties": { "gml_id": "Prefecturesetsousprefecturespo.288", "gid": 288, "insee_commune": "82033", "nom_commune": "Castelsarrasin", "type": "Sous-préfecture" }, "geometry": { "type": "Point", "coordinates": [ 1.106911080155675, 44.038278483995036 ] } },
{ "type": "Feature", "properties": { "gml_id": "Prefecturesetsousprefecturespo.289", "gid": 289, "insee_commune": "82121", "nom_commune": "Montauban", "type": "Préfecture" }, "geometry": { "type": "Point", "coordinates": [ 1.354057294073413, 44.019453613605982 ] } },
{ "type": "Feature", "properties": { "gml_id": "Prefecturesetsousprefecturespo.296", "gid": 296, "insee_commune": "85092", "nom_commune": "Fontenay-le-Comte", "type": "Sous-préfecture" }, "geometry": { "type": "Point", "coordinates": [ -0.806659303222928, 46.467222429234255 ] } },
{ "type": "Feature", "properties": { "gml_id": "Prefecturesetsousprefecturespo.297", "gid": 297, "insee_commune": "85191", "nom_commune": "La Roche-sur-Yon", "type": "Préfecture" }, "geometry": { "type": "Point", "coordinates": [ -1.426138791504214, 46.670649746017304 ] } },
{ "type": "Feature", "properties": { "gml_id": "Prefecturesetsousprefecturespo.298", "gid": 298, "insee_commune": "85194", "nom_commune": "Les Sables-d'Olonne", "type": "Sous-préfecture" }, "geometry": { "type": "Point", "coordinates": [ -1.780586047280914, 46.496209763446075 ] } },
{ "type": "Feature", "properties": { "gml_id": "Prefecturesetsousprefecturespo.299", "gid": 299, "insee_commune": "86165", "nom_commune": "Montmorillon", "type": "Sous-préfecture" }, "geometry": { "type": "Point", "coordinates": [ 0.871194060564447, 46.425176739037866 ] } },
{ "type": "Feature", "properties": { "gml_id": "Prefecturesetsousprefecturespo.300", "gid": 300, "insee_commune": "86066", "nom_commune": "Châtellerault", "type": "Sous-préfecture" }, "geometry": { "type": "Point", "coordinates": [ 0.543250101714621, 46.817876556760446 ] } },
{ "type": "Feature", "properties": { "gml_id": "Prefecturesetsousprefecturespo.301", "gid": 301, "insee_commune": "86194", "nom_commune": "Poitiers", "type": "Préfecture de région" }, "geometry": { "type": "Point", "coordinates": [ 0.344343920948733, 46.581776097245609 ] } },
{ "type": "Feature", "properties": { "gml_id": "Prefecturesetsousprefecturespo.302", "gid": 302, "insee_commune": "87011", "nom_commune": "Bellac", "type": "Sous-préfecture" }, "geometry": { "type": "Point", "coordinates": [ 1.053743848177044, 46.1241855112807 ] } },
{ "type": "Feature", "properties": { "gml_id": "Prefecturesetsousprefecturespo.303", "gid": 303, "insee_commune": "87085", "nom_commune": "Limoges", "type": "Préfecture de région" }, "geometry": { "type": "Point", "coordinates": [ 1.262120862364531, 45.83641870279758 ] } },
{ "type": "Feature", "properties": { "gml_id": "Prefecturesetsousprefecturespo.304", "gid": 304, "insee_commune": "87126", "nom_commune": "Rochechouart", "type": "Sous-préfecture" }, "geometry": { "type": "Point", "coordinates": [ 0.829548151019308, 45.831870232780908 ] } },
{ "type": "Feature", "properties": { "gml_id": "Prefecturesetsousprefecturespo.152", "gid": 152, "insee_commune": "46042", "nom_commune": "Cahors", "type": "Préfecture" }, "geometry": { "type": "Point", "coordinates": [ 1.435285314704807, 44.451012995189622 ] } },
{ "type": "Feature", "properties": { "gml_id": "Prefecturesetsousprefecturespo.153", "gid": 153, "insee_commune": "46102", "nom_commune": "Figeac", "type": "Sous-préfecture" }, "geometry": { "type": "Point", "coordinates": [ 2.033781294330556, 44.608647036338276 ] } },
{ "type": "Feature", "properties": { "gml_id": "Prefecturesetsousprefecturespo.154", "gid": 154, "insee_commune": "46127", "nom_commune": "Gourdon", "type": "Sous-préfecture" }, "geometry": { "type": "Point", "coordinates": [ 1.381104718445023, 44.736891178312497 ] } },
{ "type": "Feature", "properties": { "gml_id": "Prefecturesetsousprefecturespo.155", "gid": 155, "insee_commune": "47001", "nom_commune": "Agen", "type": "Préfecture" }, "geometry": { "type": "Point", "coordinates": [ 0.618606496714496, 44.204102893511134 ] } },
{ "type": "Feature", "properties": { "gml_id": "Prefecturesetsousprefecturespo.156", "gid": 156, "insee_commune": "47157", "nom_commune": "Marmande", "type": "Sous-préfecture" }, "geometry": { "type": "Point", "coordinates": [ 0.165682617996111, 44.500754464261377 ] } },
{ "type": "Feature", "properties": { "gml_id": "Prefecturesetsousprefecturespo.157", "gid": 157, "insee_commune": "47195", "nom_commune": "Nérac", "type": "Sous-préfecture" }, "geometry": { "type": "Point", "coordinates": [ 0.339194197567023, 44.136320005303553 ] } },
{ "type": "Feature", "properties": { "gml_id": "Prefecturesetsousprefecturespo.158", "gid": 158, "insee_commune": "47323", "nom_commune": "Villeneuve-sur-lot", "type": "Sous-préfecture" }, "geometry": { "type": "Point", "coordinates": [ 0.705448052476558, 44.407207778059458 ] } },
{ "type": "Feature", "properties": { "gml_id": "Prefecturesetsousprefecturespo.159", "gid": 159, "insee_commune": "48061", "nom_commune": "Florac", "type": "Sous-préfecture" }, "geometry": { "type": "Point", "coordinates": [ 3.589167633303256, 44.330087938565953 ] } },
{ "type": "Feature", "properties": { "gml_id": "Prefecturesetsousprefecturespo.160", "gid": 160, "insee_commune": "48095", "nom_commune": "Mende", "type": "Préfecture" }, "geometry": { "type": "Point", "coordinates": [ 3.498573093485739, 44.518341600872574 ] } },
{ "type": "Feature", "properties": { "gml_id": "Prefecturesetsousprefecturespo.162", "gid": 162, "insee_commune": "49099", "nom_commune": "Cholet", "type": "Sous-préfecture" }, "geometry": { "type": "Point", "coordinates": [ -0.878862937192748, 47.061913464138399 ] } },
{ "type": "Feature", "properties": { "gml_id": "Prefecturesetsousprefecturespo.197", "gid": 197, "insee_commune": "58062", "nom_commune": "Château-Chinon (ville)", "type": "Sous-préfecture" }, "geometry": { "type": "Point", "coordinates": [ 3.93347600747769, 47.064390715345937 ] } },
{ "type": "Feature", "properties": { "gml_id": "Prefecturesetsousprefecturespo.200", "gid": 200, "insee_commune": "58194", "nom_commune": "Nevers", "type": "Préfecture" }, "geometry": { "type": "Point", "coordinates": [ 3.159893201980256, 46.988613120367368 ] } },
{ "type": "Feature", "properties": { "gml_id": "Prefecturesetsousprefecturespo.221", "gid": 221, "insee_commune": "63003", "nom_commune": "Ambert", "type": "Sous-préfecture" }, "geometry": { "type": "Point", "coordinates": [ 3.742359526116395, 45.550111983839713 ] } },
{ "type": "Feature", "properties": { "gml_id": "Prefecturesetsousprefecturespo.222", "gid": 222, "insee_commune": "63113", "nom_commune": "Clermont-Ferrand", "type": "Préfecture de région" }, "geometry": { "type": "Point", "coordinates": [ 3.088490502221743, 45.779471966692405 ] } },
{ "type": "Feature", "properties": { "gml_id": "Prefecturesetsousprefecturespo.223", "gid": 223, "insee_commune": "63178", "nom_commune": "Issoire", "type": "Sous-préfecture" }, "geometry": { "type": "Point", "coordinates": [ 3.248571498120866, 45.544467830599828 ] } },
{ "type": "Feature", "properties": { "gml_id": "Prefecturesetsousprefecturespo.224", "gid": 224, "insee_commune": "63300", "nom_commune": "Riom", "type": "Sous-préfecture" }, "geometry": { "type": "Point", "coordinates": [ 3.112617272141589, 45.893385487243918 ] } },
{ "type": "Feature", "properties": { "gml_id": "Prefecturesetsousprefecturespo.225", "gid": 225, "insee_commune": "63430", "nom_commune": "Thiers", "type": "Sous-préfecture" }, "geometry": { "type": "Point", "coordinates": [ 3.541693473140685, 45.857297868597669 ] } },
{ "type": "Feature", "properties": { "gml_id": "Prefecturesetsousprefecturespo.226", "gid": 226, "insee_commune": "64102", "nom_commune": "Bayonne", "type": "Sous-préfecture" }, "geometry": { "type": "Point", "coordinates": [ -1.475503841812309, 43.49205204127778 ] } },
{ "type": "Feature", "properties": { "gml_id": "Prefecturesetsousprefecturespo.227", "gid": 227, "insee_commune": "64422", "nom_commune": "Oloron-sainte-Marie", "type": "Sous-préfecture" }, "geometry": { "type": "Point", "coordinates": [ -0.606938522221457, 43.193668560924223 ] } },
{ "type": "Feature", "properties": { "gml_id": "Prefecturesetsousprefecturespo.228", "gid": 228, "insee_commune": "64445", "nom_commune": "Pau", "type": "Préfecture" }, "geometry": { "type": "Point", "coordinates": [ -0.369120763686252, 43.300610028621691 ] } },
{ "type": "Feature", "properties": { "gml_id": "Prefecturesetsousprefecturespo.229", "gid": 229, "insee_commune": "65025", "nom_commune": "Argelès-Gazost", "type": "Sous-préfecture" }, "geometry": { "type": "Point", "coordinates": [ -0.096374868361409, 43.004635541257976 ] } },
{ "type": "Feature", "properties": { "gml_id": "Prefecturesetsousprefecturespo.230", "gid": 230, "insee_commune": "65059", "nom_commune": "Bagnères-de-Bigorre", "type": "Sous-préfecture" }, "geometry": { "type": "Point", "coordinates": [ 0.151032070339178, 43.069932797847585 ] } },
{ "type": "Feature", "properties": { "gml_id": "Prefecturesetsousprefecturespo.231", "gid": 231, "insee_commune": "65440", "nom_commune": "Tarbes", "type": "Préfecture" }, "geometry": { "type": "Point", "coordinates": [ 0.073336170168914, 43.233708114720017 ] } },
{ "type": "Feature", "properties": { "gml_id": "Prefecturesetsousprefecturespo.51", "gid": 51, "insee_commune": "16015", "nom_commune": "Angoulême", "type": "Préfecture" }, "geometry": { "type": "Point", "coordinates": [ 0.158461125682635, 45.651803403531531 ] } },
{ "type": "Feature", "properties": { "gml_id": "Prefecturesetsousprefecturespo.52", "gid": 52, "insee_commune": "16102", "nom_commune": "Cognac", "type": "Sous-préfecture" }, "geometry": { "type": "Point", "coordinates": [ -0.325835674034448, 45.690097945071159 ] } },
{ "type": "Feature", "properties": { "gml_id": "Prefecturesetsousprefecturespo.53", "gid": 53, "insee_commune": "16106", "nom_commune": "Confolens", "type": "Sous-préfecture" }, "geometry": { "type": "Point", "coordinates": [ 0.670884809755242, 46.015036838877343 ] } },
{ "type": "Feature", "properties": { "gml_id": "Prefecturesetsousprefecturespo.54", "gid": 54, "insee_commune": "17197", "nom_commune": "Jonzac", "type": "Sous-préfecture" }, "geometry": { "type": "Point", "coordinates": [ -0.435602883773984, 45.442443423767244 ] } },
{ "type": "Feature", "properties": { "gml_id": "Prefecturesetsousprefecturespo.55", "gid": 55, "insee_commune": "17299", "nom_commune": "Rochefort", "type": "Sous-préfecture" }, "geometry": { "type": "Point", "coordinates": [ -0.961859788759018, 45.939327598334764 ] } },
{ "type": "Feature", "properties": { "gml_id": "Prefecturesetsousprefecturespo.56", "gid": 56, "insee_commune": "17300", "nom_commune": "La Rochelle", "type": "Préfecture" }, "geometry": { "type": "Point", "coordinates": [ -1.14780107033378, 46.156719781728292 ] } },
{ "type": "Feature", "properties": { "gml_id": "Prefecturesetsousprefecturespo.57", "gid": 57, "insee_commune": "17347", "nom_commune": "St-Jean-d'Angély", "type": "Sous-préfecture" }, "geometry": { "type": "Point", "coordinates": [ -0.51988437910344, 45.944175186099152 ] } },
{ "type": "Feature", "properties": { "gml_id": "Prefecturesetsousprefecturespo.58", "gid": 58, "insee_commune": "17415", "nom_commune": "Saintes", "type": "Sous-préfecture" }, "geometry": { "type": "Point", "coordinates": [ -0.632432651395807, 45.745040572362399 ] } },
{ "type": "Feature", "properties": { "gml_id": "Prefecturesetsousprefecturespo.59", "gid": 59, "insee_commune": "18033", "nom_commune": "Bourges", "type": "Préfecture" }, "geometry": { "type": "Point", "coordinates": [ 2.394756387807855, 47.085208923235044 ] } },
{ "type": "Feature", "properties": { "gml_id": "Prefecturesetsousprefecturespo.60", "gid": 60, "insee_commune": "18197", "nom_commune": "Saint-Amand-Montrond", "type": "Sous-préfecture" }, "geometry": { "type": "Point", "coordinates": [ 2.504749915984825, 46.723116681158238 ] } },
{ "type": "Feature", "properties": { "gml_id": "Prefecturesetsousprefecturespo.62", "gid": 62, "insee_commune": "19031", "nom_commune": "Brive-la-Gaillarde", "type": "Sous-préfecture" }, "geometry": { "type": "Point", "coordinates": [ 1.508123111897137, 45.14973945300676 ] } },
{ "type": "Feature", "properties": { "gml_id": "Prefecturesetsousprefecturespo.63", "gid": 63, "insee_commune": "19272", "nom_commune": "Tulle", "type": "Préfecture" }, "geometry": { "type": "Point", "coordinates": [ 1.770661055330309, 45.268499169913063 ] } },
{ "type": "Feature", "properties": { "gml_id": "Prefecturesetsousprefecturespo.64", "gid": 64, "insee_commune": "19275", "nom_commune": "Ussel", "type": "Sous-préfecture" }, "geometry": { "type": "Point", "coordinates": [ 2.310772614425077, 45.547926727936741 ] } },
{ "type": "Feature", "properties": { "gml_id": "Prefecturesetsousprefecturespo.72", "gid": 72, "insee_commune": "23008", "nom_commune": "Aubusson", "type": "Sous-préfecture" }, "geometry": { "type": "Point", "coordinates": [ 2.169484647396373, 45.953098556204672 ] } },
{ "type": "Feature", "properties": { "gml_id": "Prefecturesetsousprefecturespo.73", "gid": 73, "insee_commune": "23096", "nom_commune": "Guéret", "type": "Préfecture" }, "geometry": { "type": "Point", "coordinates": [ 1.868300509213551, 46.172129600579886 ] } },
{ "type": "Feature", "properties": { "gml_id": "Prefecturesetsousprefecturespo.74", "gid": 74, "insee_commune": "24037", "nom_commune": "Bergerac", "type": "Sous-préfecture" }, "geometry": { "type": "Point", "coordinates": [ 0.485499095715124, 44.85501719647668 ] } },
{ "type": "Feature", "properties": { "gml_id": "Prefecturesetsousprefecturespo.75", "gid": 75, "insee_commune": "24311", "nom_commune": "Nontron", "type": "Sous-préfecture" }, "geometry": { "type": "Point", "coordinates": [ 0.665425283999836, 45.537433812627562 ] } },
{ "type": "Feature", "properties": { "gml_id": "Prefecturesetsousprefecturespo.76", "gid": 76, "insee_commune": "24322", "nom_commune": "Périgueux", "type": "Préfecture" }, "geometry": { "type": "Point", "coordinates": [ 0.707015567245714, 45.189350947433731 ] } },
{ "type": "Feature", "properties": { "gml_id": "Prefecturesetsousprefecturespo.77", "gid": 77, "insee_commune": "24520", "nom_commune": "Sarlat-la-Canéda", "type": "Sous-préfecture" }, "geometry": { "type": "Point", "coordinates": [ 1.217374926479051, 44.885888357219812 ] } },
{ "type": "Feature", "properties": { "gml_id": "Prefecturesetsousprefecturespo.100", "gid": 100, "insee_commune": "30007", "nom_commune": "Alès", "type": "Sous-préfecture" }, "geometry": { "type": "Point", "coordinates": [ 4.081794854807097, 44.12406672527424 ] } },
{ "type": "Feature", "properties": { "gml_id": "Prefecturesetsousprefecturespo.101", "gid": 101, "insee_commune": "30189", "nom_commune": "Nîmes", "type": "Préfecture" }, "geometry": { "type": "Point", "coordinates": [ 4.359331334721174, 43.83660090251054 ] } },
{ "type": "Feature", "properties": { "gml_id": "Prefecturesetsousprefecturespo.102", "gid": 102, "insee_commune": "30350", "nom_commune": "Le Vigan", "type": "Sous-préfecture" }, "geometry": { "type": "Point", "coordinates": [ 3.602269346010253, 43.989431030149788 ] } },
{ "type": "Feature", "properties": { "gml_id": "Prefecturesetsousprefecturespo.103", "gid": 103, "insee_commune": "31395", "nom_commune": "Muret", "type": "Sous-préfecture" }, "geometry": { "type": "Point", "coordinates": [ 1.334502984651861, 43.465425908349218 ] } },
{ "type": "Feature", "properties": { "gml_id": "Prefecturesetsousprefecturespo.104", "gid": 104, "insee_commune": "31483", "nom_commune": "Saint-Gaudens", "type": "Sous-préfecture" }, "geometry": { "type": "Point", "coordinates": [ 0.723644122715601, 43.109557318148433 ] } },
{ "type": "Feature", "properties": { "gml_id": "Prefecturesetsousprefecturespo.105", "gid": 105, "insee_commune": "31555", "nom_commune": "Toulouse", "type": "Préfecture de région" }, "geometry": { "type": "Point", "coordinates": [ 1.441503599281701, 43.602720011587913 ] } },
{ "type": "Feature", "properties": { "gml_id": "Prefecturesetsousprefecturespo.107", "gid": 107, "insee_commune": "32107", "nom_commune": "Condom", "type": "Sous-préfecture" }, "geometry": { "type": "Point", "coordinates": [ 0.371088129825471, 43.957671990918229 ] } },
{ "type": "Feature", "properties": { "gml_id": "Prefecturesetsousprefecturespo.108", "gid": 108, "insee_commune": "32256", "nom_commune": "Mirande", "type": "Sous-préfecture" }, "geometry": { "type": "Point", "coordinates": [ 0.404476165858324, 43.514676054250963 ] } },
{ "type": "Feature", "properties": { "gml_id": "Prefecturesetsousprefecturespo.109", "gid": 109, "insee_commune": "33058", "nom_commune": "Blaye", "type": "Sous-préfecture" }, "geometry": { "type": "Point", "coordinates": [ -0.661843474394652, 45.128018677419099 ] } },
{ "type": "Feature", "properties": { "gml_id": "Prefecturesetsousprefecturespo.110", "gid": 110, "insee_commune": "33063", "nom_commune": "Bordeaux", "type": "Préfecture de région" }, "geometry": { "type": "Point", "coordinates": [ -0.572916802149505, 44.842679337237129 ] } },
{ "type": "Feature", "properties": { "gml_id": "Prefecturesetsousprefecturespo.111", "gid": 111, "insee_commune": "33227", "nom_commune": "Langon", "type": "Sous-préfecture" }, "geometry": { "type": "Point", "coordinates": [ -0.24786818990523, 44.552675421767425 ] } },
{ "type": "Feature", "properties": { "gml_id": "Prefecturesetsousprefecturespo.112", "gid": 112, "insee_commune": "33240", "nom_commune": "Lesparre-Médoc", "type": "Sous-préfecture" }, "geometry": { "type": "Point", "coordinates": [ -0.93871132587875, 45.307024238296854 ] } },
{ "type": "Feature", "properties": { "gml_id": "Prefecturesetsousprefecturespo.113", "gid": 113, "insee_commune": "33243", "nom_commune": "Libourne", "type": "Sous-préfecture" }, "geometry": { "type": "Point", "coordinates": [ -0.243580805371558, 44.914103443358165 ] } },
{ "type": "Feature", "properties": { "gml_id": "Prefecturesetsousprefecturespo.114", "gid": 114, "insee_commune": "34032", "nom_commune": "Béziers", "type": "Sous-préfecture" }, "geometry": { "type": "Point", "coordinates": [ 3.230507430061571, 43.344687401546516 ] } },
{ "type": "Feature", "properties": { "gml_id": "Prefecturesetsousprefecturespo.115", "gid": 115, "insee_commune": "34142", "nom_commune": "Lodève", "type": "Sous-préfecture" }, "geometry": { "type": "Point", "coordinates": [ 3.319806350587073, 43.733154932353777 ] } },
{ "type": "Feature", "properties": { "gml_id": "Prefecturesetsousprefecturespo.116", "gid": 116, "insee_commune": "34172", "nom_commune": "Montpellier", "type": "Préfecture de région" }, "geometry": { "type": "Point", "coordinates": [ 3.875238190771749, 43.606947661778563 ] } },
{ "type": "Feature", "properties": { "gml_id": "Prefecturesetsousprefecturespo.121", "gid": 121, "insee_commune": "36018", "nom_commune": "Le Blanc", "type": "Sous-préfecture" }, "geometry": { "type": "Point", "coordinates": [ 1.063513342152225, 46.633872434045841 ] } },
{ "type": "Feature", "properties": { "gml_id": "Prefecturesetsousprefecturespo.122", "gid": 122, "insee_commune": "36044", "nom_commune": "Châteauroux", "type": "Préfecture" }, "geometry": { "type": "Point", "coordinates": [ 1.692028903515658, 46.80947203645951 ] } },
{ "type": "Feature", "properties": { "gml_id": "Prefecturesetsousprefecturespo.123", "gid": 123, "insee_commune": "36046", "nom_commune": "La Châtre", "type": "Sous-préfecture" }, "geometry": { "type": "Point", "coordinates": [ 1.989316978366754, 46.580700226832633 ] } },
{ "type": "Feature", "properties": { "gml_id": "Prefecturesetsousprefecturespo.124", "gid": 124, "insee_commune": "36088", "nom_commune": "Issoudun", "type": "Sous-préfecture" }, "geometry": { "type": "Point", "coordinates": [ 1.992422084809697, 46.949354300370636 ] } },
{ "type": "Feature", "properties": { "gml_id": "Prefecturesetsousprefecturespo.125", "gid": 125, "insee_commune": "37072", "nom_commune": "Chinon", "type": "Sous-préfecture" }, "geometry": { "type": "Point", "coordinates": [ 0.244763536608924, 47.167091035787188 ] } },
{ "type": "Feature", "properties": { "gml_id": "Prefecturesetsousprefecturespo.126", "gid": 126, "insee_commune": "37132", "nom_commune": "Loches", "type": "Sous-préfecture" }, "geometry": { "type": "Point", "coordinates": [ 0.996811001617128, 47.12875292689241 ] } },
{ "type": "Feature", "properties": { "gml_id": "Prefecturesetsousprefecturespo.134", "gid": 134, "insee_commune": "40088", "nom_commune": "Dax", "type": "Sous-préfecture" }, "geometry": { "type": "Point", "coordinates": [ -1.053621305184426, 43.708486108820331 ] } },
{ "type": "Feature", "properties": { "gml_id": "Prefecturesetsousprefecturespo.135", "gid": 135, "insee_commune": "40192", "nom_commune": "Mont-de-Marsan", "type": "Préfecture" }, "geometry": { "type": "Point", "coordinates": [ -0.500148853476873, 43.891271314887966 ] } },
{ "type": "Feature", "properties": { "gml_id": "Prefecturesetsousprefecturespo.139", "gid": 139, "insee_commune": "42147", "nom_commune": "Montbrison", "type": "Sous-préfecture" }, "geometry": { "type": "Point", "coordinates": [ 4.064772035982568, 45.606907801036002 ] } },
{ "type": "Feature", "properties": { "gml_id": "Prefecturesetsousprefecturespo.140", "gid": 140, "insee_commune": "42187", "nom_commune": "Roanne", "type": "Sous-préfecture" }, "geometry": { "type": "Point", "coordinates": [ 4.068418307650588, 46.038211908735207 ] } },
{ "type": "Feature", "properties": { "gml_id": "Prefecturesetsousprefecturespo.141", "gid": 141, "insee_commune": "42218", "nom_commune": "Saint-Etienne", "type": "Préfecture" }, "geometry": { "type": "Point", "coordinates": [ 4.390834789046336, 45.440639763376765 ] } },
{ "type": "Feature", "properties": { "gml_id": "Prefecturesetsousprefecturespo.142", "gid": 142, "insee_commune": "43040", "nom_commune": "Brioude", "type": "Sous-préfecture" }, "geometry": { "type": "Point", "coordinates": [ 3.384454060037333, 45.294159364245978 ] } },
{ "type": "Feature", "properties": { "gml_id": "Prefecturesetsousprefecturespo.143", "gid": 143, "insee_commune": "43157", "nom_commune": "Le-Puy-en-Velay", "type": "Préfecture" }, "geometry": { "type": "Point", "coordinates": [ 3.88581961059998, 45.043305177130179 ] } },
{ "type": "Feature", "properties": { "gml_id": "Prefecturesetsousprefecturespo.144", "gid": 144, "insee_commune": "43268", "nom_commune": "Yssingeaux", "type": "Sous-préfecture" }, "geometry": { "type": "Point", "coordinates": [ 4.123298246409658, 45.141910422457315 ] } },
{ "type": "Feature", "properties": { "gml_id": "Prefecturesetsousprefecturespo.48", "gid": 48, "insee_commune": "15014", "nom_commune": "Aurillac", "type": "Préfecture" }, "geometry": { "type": "Point", "coordinates": [ 2.442479294142049, 44.927549104695501 ] } },
{ "type": "Feature", "properties": { "gml_id": "Prefecturesetsousprefecturespo.49", "gid": 49, "insee_commune": "15120", "nom_commune": "Mauriac", "type": "Sous-préfecture" }, "geometry": { "type": "Point", "coordinates": [ 2.333919875482252, 45.217873594699711 ] } },
{ "type": "Feature", "properties": { "gml_id": "Prefecturesetsousprefecturespo.50", "gid": 50, "insee_commune": "15187", "nom_commune": "Saint-Flour", "type": "Sous-préfecture" }, "geometry": { "type": "Point", "coordinates": [ 3.091867227305118, 45.03262750547961 ] } },
{ "type": "Feature", "properties": { "gml_id": "Prefecturesetsousprefecturespo.106", "gid": 106, "insee_commune": "32013", "nom_commune": "Auch", "type": "Préfecture" }, "geometry": { "type": "Point", "coordinates": [ 0.588426162547776, 43.646922295589249 ] } },
{ "type": "Feature", "properties": { "gml_id": "Prefecturesetsousprefecturespo.10", "gid": 10, "insee_commune": "03185", "nom_commune": "Montluçon", "type": "Sous-préfecture" }, "geometry": { "type": "Point", "coordinates": [ 2.601691005217777, 46.340851710508474 ] } },
{ "type": "Feature", "properties": { "gml_id": "Prefecturesetsousprefecturespo.11", "gid": 11, "insee_commune": "03190", "nom_commune": "Moulins", "type": "Préfecture" }, "geometry": { "type": "Point", "coordinates": [ 3.329100522448193, 46.562502955429878 ] } },
{ "type": "Feature", "properties": { "gml_id": "Prefecturesetsousprefecturespo.12", "gid": 12, "insee_commune": "03310", "nom_commune": "Vichy", "type": "Sous-préfecture" }, "geometry": { "type": "Point", "coordinates": [ 3.424738778129834, 46.129458151896181 ] } },
{ "type": "Feature", "properties": { "gml_id": "Prefecturesetsousprefecturespo.21", "gid": 21, "insee_commune": "07132", "nom_commune": "Largentière", "type": "Sous-préfecture" }, "geometry": { "type": "Point", "coordinates": [ 4.294962585016913, 44.544260007556886 ] } },
{ "type": "Feature", "properties": { "gml_id": "Prefecturesetsousprefecturespo.22", "gid": 22, "insee_commune": "07186", "nom_commune": "Privas", "type": "Préfecture" }, "geometry": { "type": "Point", "coordinates": [ 4.592244654495807, 44.728427526990565 ] } },
{ "type": "Feature", "properties": { "gml_id": "Prefecturesetsousprefecturespo.28", "gid": 28, "insee_commune": "09122", "nom_commune": "Foix", "type": "Préfecture" }, "geometry": { "type": "Point", "coordinates": [ 1.607005919448175, 42.965114092065868 ] } },
{ "type": "Feature", "properties": { "gml_id": "Prefecturesetsousprefecturespo.29", "gid": 29, "insee_commune": "09225", "nom_commune": "Pamiers", "type": "Sous-préfecture" }, "geometry": { "type": "Point", "coordinates": [ 1.616076182348548, 43.116313916176978 ] } },
{ "type": "Feature", "properties": { "gml_id": "Prefecturesetsousprefecturespo.30", "gid": 30, "insee_commune": "09261", "nom_commune": "Saint-Girons", "type": "Sous-préfecture" }, "geometry": { "type": "Point", "coordinates": [ 1.14486621617052, 42.985952367251642 ] } },
{ "type": "Feature", "properties": { "gml_id": "Prefecturesetsousprefecturespo.34", "gid": 34, "insee_commune": "11069", "nom_commune": "Carcassonne", "type": "Préfecture" }, "geometry": { "type": "Point", "coordinates": [ 2.352004365346309, 43.213791038870646 ] } },
{ "type": "Feature", "properties": { "gml_id": "Prefecturesetsousprefecturespo.35", "gid": 35, "insee_commune": "11206", "nom_commune": "Limoux", "type": "Sous-préfecture" }, "geometry": { "type": "Point", "coordinates": [ 2.218669036518211, 43.053380487420121 ] } },
{ "type": "Feature", "properties": { "gml_id": "Prefecturesetsousprefecturespo.36", "gid": 36, "insee_commune": "11262", "nom_commune": "Narbonne", "type": "Sous-préfecture" }, "geometry": { "type": "Point", "coordinates": [ 3.000186885122451, 43.183333385358274 ] } },
{ "type": "Feature", "properties": { "gml_id": "Prefecturesetsousprefecturespo.37", "gid": 37, "insee_commune": "12145", "nom_commune": "Millau", "type": "Sous-préfecture" }, "geometry": { "type": "Point", "coordinates": [ 3.079056029520145, 44.099911131884916 ] } },
{ "type": "Feature", "properties": { "gml_id": "Prefecturesetsousprefecturespo.38", "gid": 38, "insee_commune": "12202", "nom_commune": "Rodez", "type": "Préfecture" }, "geometry": { "type": "Point", "coordinates": [ 2.576832204771252, 44.357930533516772 ] } },
{ "type": "Feature", "properties": { "gml_id": "Prefecturesetsousprefecturespo.39", "gid": 39, "insee_commune": "12300", "nom_commune": "Villefranche-de-Rouergue", "type": "Sous-préfecture" }, "geometry": { "type": "Point", "coordinates": [ 2.036633976890132, 44.351383742422342 ] } },
{ "type": "Feature", "properties": { "gml_id": "Prefecturesetsousprefecturespo.41", "gid": 41, "insee_commune": "13004", "nom_commune": "Arles", "type": "Sous-préfecture" }, "geometry": { "type": "Point", "coordinates": [ 4.628912412518409, 43.677953154415285 ] } }
]
}
